{
  "hotels": [
    {"name": "Hotel Mont-Blanc", "rank": 1, "website": "https://www.hotelmontblancchamonix.com/", "market_segment": "Luxury", "coordinates": {"lat": 45.9237, "lng": 6.8694}},
    {"name": "Grand Hotel des Alpes", "rank": 2, "website": "https://www.grandhoteldesalpes.com/", "market_segment": "Luxury", "coordinates": {"lat": 45.9245, "lng": 6.8712}},
    {"name": "Le Hameau Albert 1er", "rank": 3, "website": "https://www.hameaualbert.fr/", "market_segment": "Luxury", "coordinates": {"lat": 45.9212, "lng": 6.8634}},
    {"name": "Hotel L'Heliopic", "rank": 4, "website": "https://www.heliopic-hotel-spa.com/", "market_segment": "Upscale", "coordinates": {"lat": 45.9234, "lng": 6.8723}},
    {"name": "Le Refuge des Aiglons", "rank": 5, "website": "https://www.aiglons.com/", "market_segment": "Upscale", "coordinates": {"lat": 45.9189, "lng": 6.8612}},
    {"name": "Hotel Le Morgane", "rank": 6, "website": "https://www.morgane-hotel-chamonix.com/", "market_segment": "Upscale", "coordinates": {"lat": 45.9256, "lng": 6.8701}},
    {"name": "Hôtel Alpina", "rank": 7, "website": "https://www.alpina-chamonix.com/", "market_segment": "Upper-Midscale", "coordinates": {"lat": 45.9223, "lng": 6.8689}},
    {"name": "Les Aiglons Resort & Spa", "rank": 8, "website": "https://www.aiglons.com/", "market_segment": "Upscale", "coordinates": {"lat": 45.9178, "lng": 6.8601}},
    {"name": "Mercure Chamonix Centre", "rank": 9, "website": "https://www.mercure-chamonix.com/", "market_segment": "Midscale", "coordinates": {"lat": 45.9245, "lng": 6.8678}},
    {"name": "Hotel Park Hôtel Suisse", "rank": 10, "website": "https://www.chamonix-park-hotel.com/", "market_segment": "Upper-Midscale", "coordinates": {"lat": 45.9234, "lng": 6.8667}},
    {"name": "Hôtel Gourmets et Italy", "rank": 11, "website": "https://www.hotelgourmets-chamonix.com/", "market_segment": "Upper-Midscale", "coordinates": {"lat": 45.9256, "lng": 6.8689}},
    {"name": "Hôtel Le Faucigny", "rank": 12, "website": "https://www.hotelfaucigny-chamonix.com/", "market_segment": "Upper-Midscale", "coordinates": {"lat": 45.9212, "lng": 6.8656}},
    {"name": "Hôtel Vallée Blanche", "rank": 13, "website": "https://www.hotelvalleeblancha.fr/", "market_segment": "Upper-Midscale", "coordinates": {"lat": 45.9223, "lng": 6.8645}},
    {"name": "Best Western Plus Excelsior Chamonix", "rank": 14, "website": "https://www.hotelexcelsiorchamonix.com/", "market_segment": "Midscale", "coordinates": {"lat": 45.9267, "lng": 6.8712}},
    {"name": "Hotel Aiguille du Midi", "rank": 15, "website": "https://www.hotel-aiguilledumidi.com/", "market_segment": "Upper-Midscale", "coordinates": {"lat": 45.9189, "lng": 6.8634}},
    {"name": "Le Vert Hotel", "rank": 16, "website": "https://www.leverthotel.com/", "market_segment": "Upper-Midscale", "coordinates": {"lat": 45.9201, "lng": 6.8623}},
    {"name": "Hotel Croix Blanche", "rank": 17, "website": "https://www.hotel-croixblanche.com/", "market_segment": "Midscale", "coordinates": {"lat": 45.9234, "lng": 6.8701}},
    {"name": "Hotel Prieuré", "rank": 18, "website": "https://www.hotelprieure.com/", "market_segment": "Midscale", "coordinates": {"lat": 45.9245, "lng": 6.8689}},
    {"name": "Chalet Hotel Le Prieuré", "rank": 19, "website": "https://www.prieure-chamonix.com/", "market_segment": "Upper-Midscale", "coordinates": {"lat": 45.9189, "lng": 6.8645}},
    {"name": "Hotel La Savoyarde", "rank": 20, "website": "https://www.lasavoyarde.com/", "market_segment": "Upper-Midscale", "coordinates": {"lat": 45.9212, "lng": 6.8678}},
    {"name": "Hotel Les Lanchers", "rank": 21, "website": "https://www.hotel-les-lanchers.com/", "market_segment": "Midscale", "coordinates": {"lat": 45.9278, "lng": 6.8612}},
    {"name": "RockyPop Hotel Chamonix", "rank": 22, "website": "https://www.rockypop-chamonix.com/", "market_segment": "Midscale", "coordinates": {"lat": 45.9145, "lng": 6.8556}},
    {"name": "Hotel Eden", "rank": 23, "website": "https://www.hotel-eden-chamonix.com/", "market_segment": "Midscale", "coordinates": {"lat": 45.9256, "lng": 6.8678}},
    {"name": "Hotel Richmond", "rank": 24, "website": "https://www.richmond-chamonix.com/", "market_segment": "Midscale", "coordinates": {"lat": 45.9223, "lng": 6.8712}},
    {"name": "Hotel L'Oustalet", "rank": 25, "website": "https://www.hotel-oustalet.com/", "market_segment": "Midscale", "coordinates": {"lat": 45.9234, "lng": 6.8723}},
    {"name": "Les Chalets de Philippe", "rank": 26, "website": "https://www.chaletsphilippe.com/", "market_segment": "Upper-Midscale", "coordinates": {"lat": 45.9312, "lng": 6.8834}},
    {"name": "Auberge du Bois Prin", "rank": 27, "website": "https://www.boisprin.com/", "market_segment": "Upscale", "coordinates": {"lat": 45.9167, "lng": 6.8734}},
    {"name": "Chamonix Lodge", "rank": 28, "website": "https://www.chamonixlodge.com/", "market_segment": "Economy", "coordinates": {"lat": 45.9178, "lng": 6.8589}},
    {"name": "Hotel du Louvre", "rank": 29, "website": "https://www.hoteldulouvre-chamonix.com/", "market_segment": "Midscale", "coordinates": {"lat": 45.9245, "lng": 6.8701}},
    {"name": "Hotel Pointe Isabelle", "rank": 30, "website": "https://www.pointe-isabelle.com/", "market_segment": "Midscale", "coordinates": {"lat": 45.9234, "lng": 6.8656}}
  ]
}
