{
  "hotels": [
    {"name": "The Omnia", "rank": 1, "website": "https://www.the-omnia.com/", "market_segment": "Luxury", "coordinates": {"lat": 46.0207, "lng": 7.7491}},
    {"name": "Mont Cervin Palace", "rank": 2, "website": "https://www.montcervinpalace.ch/", "market_segment": "Luxury", "coordinates": {"lat": 46.0234, "lng": 7.7512}},
    {"name": "Grand Hotel Zermatterhof", "rank": 3, "website": "https://www.zermatterhof.ch/", "market_segment": "Luxury", "coordinates": {"lat": 46.0223, "lng": 7.7489}},
    {"name": "Riffelalp Resort 2222m", "rank": 4, "website": "https://www.riffelalp.com/", "market_segment": "Luxury", "coordinates": {"lat": 46.0012, "lng": 7.7634}},
    {"name": "Hotel Schweizerhof Zermatt", "rank": 5, "website": "https://www.schweizerhof-zermatt.ch/", "market_segment": "Upscale", "coordinates": {"lat": 46.0201, "lng": 7.7478}},
    {"name": "The Alpenhof", "rank": 6, "website": "https://www.alpenhof-zermatt.ch/", "market_segment": "Upscale", "coordinates": {"lat": 46.0189, "lng": 7.7467}},
    {"name": "Hotel Alex", "rank": 7, "website": "https://www.hotelalexzermatt.com/", "market_segment": "Upscale", "coordinates": {"lat": 46.0212, "lng": 7.7501}},
    {"name": "Backstage Hotel Vernissage", "rank": 8, "website": "https://www.backstagehotel.ch/", "market_segment": "Upscale", "coordinates": {"lat": 46.0198, "lng": 7.7489}},
    {"name": "Hotel Cervo Mountain Resort", "rank": 9, "website": "https://www.cervo.ch/", "market_segment": "Luxury", "coordinates": {"lat": 46.0234, "lng": 7.7534}},
    {"name": "CERVO Mountain Resort", "rank": 10, "website": "https://www.cervo.ch/", "market_segment": "Upscale", "coordinates": {"lat": 46.0245, "lng": 7.7545}},
    {"name": "Hotel Mirabeau", "rank": 11, "website": "https://www.hotel-mirabeau.ch/", "market_segment": "Upper-Midscale", "coordinates": {"lat": 46.0178, "lng": 7.7456}},
    {"name": "Romantik Hotel Julen", "rank": 12, "website": "https://www.julen.ch/", "market_segment": "Upper-Midscale", "coordinates": {"lat": 46.0189, "lng": 7.7478}},
    {"name": "Hotel National Zermatt", "rank": 13, "website": "https://www.hotelnationalzermatt.ch/", "market_segment": "Upper-Midscale", "coordinates": {"lat": 46.0201, "lng": 7.7489}},
    {"name": "Hotel Pollux", "rank": 14, "website": "https://www.hotel-pollux.ch/", "market_segment": "Upper-Midscale", "coordinates": {"lat": 46.0212, "lng": 7.7501}},
    {"name": "Hotel Firefly", "rank": 15, "website": "https://www.firefly-zermatt.ch/", "market_segment": "Upper-Midscale", "coordinates": {"lat": 46.0223, "lng": 7.7512}},
    {"name": "Hotel Butterfly", "rank": 16, "website": "https://www.hotel-butterfly.ch/", "market_segment": "Midscale", "coordinates": {"lat": 46.0167, "lng": 7.7445}},
    {"name": "Hotel Antika", "rank": 17, "website": "https://www.antika.ch/", "market_segment": "Midscale", "coordinates": {"lat": 46.0178, "lng": 7.7467}},
    {"name": "Hotel Alphubel", "rank": 18, "website": "https://www.alphubel-zermatt.ch/", "market_segment": "Upper-Midscale", "coordinates": {"lat": 46.0189, "lng": 7.7478}},
    {"name": "Hotel Aristella Swissflair", "rank": 19, "website": "https://www.aristella.ch/", "market_segment": "Upper-Midscale", "coordinates": {"lat": 46.0201, "lng": 7.7489}},
    {"name": "Unique Hotel Post", "rank": 20, "website": "https://www.uniquehotelpost.ch/", "market_segment": "Upper-Midscale", "coordinates": {"lat": 46.0212, "lng": 7.7501}},
    {"name": "Hotel Parnass", "rank": 21, "website": "https://www.parnass.ch/", "market_segment": "Midscale", "coordinates": {"lat": 46.0223, "lng": 7.7512}},
    {"name": "Hotel Bristol", "rank": 22, "website": "https://www.hotelbristolzermatt.ch/", "market_segment": "Midscale", "coordinates": {"lat": 46.0156, "lng": 7.7434}},
    {"name": "Hotel Darioli", "rank": 23, "website": "https://www.hotel-darioli.ch/", "market_segment": "Midscale", "coordinates": {"lat": 46.0167, "lng": 7.7456}},
    {"name": "Hotel Tannenhof", "rank": 24, "website": "https://www.tannenhof-zermatt.ch/", "market_segment": "Midscale", "coordinates": {"lat": 46.0178, "lng": 7.7467}},
    {"name": "Hotel Astoria", "rank": 25, "website": "https://www.astoria-zermatt.ch/", "market_segment": "Midscale", "coordinates": {"lat": 46.0189, "lng": 7.7478}},
    {"name": "Youth Hostel Zermatt", "rank": 26, "website": "https://www.youthhostel.ch/en/hostels/zermatt/", "market_segment": "Economy", "coordinates": {"lat": 46.0145, "lng": 7.7423}},
    {"name": "Matterhorn Hostel", "rank": 27, "website": "https://www.matterhornhostel.com/", "market_segment": "Economy", "coordinates": {"lat": 46.0156, "lng": 7.7445}},
    {"name": "Hotel Bahnhof", "rank": 28, "website": "https://www.hotelbahnhof.com/", "market_segment": "Economy", "coordinates": {"lat": 46.0234, "lng": 7.7489}},
    {"name": "Hotel Perren", "rank": 29, "website": "https://www.hotel-perren.ch/", "market_segment": "Upper-Midscale", "coordinates": {"lat": 46.0201, "lng": 7.7512}},
    {"name": "Hotel Albana Real", "rank": 30, "website": "https://www.albanareal.ch/", "market_segment": "Upper-Midscale", "coordinates": {"lat": 46.0212, "lng": 7.7523}}
  ]
}
