{
  "hotels": [
    {"name": "Fairmont Jasper Park Lodge", "rank": 1, "website": "https://www.fairmont.com/jasper/", "market_segment": "Luxury", "coordinates": {"lat": 52.8851, "lng": -118.0558}},
    {"name": "Sawridge Inn and Conference Centre", "rank": 2, "website": "https://www.sawridgeinn.com/jasper/", "market_segment": "Upscale", "coordinates": {"lat": 52.8734, "lng": -118.0823}},
    {"name": "Pyramid Lake Resort", "rank": 3, "website": "https://www.pyramidlakeresort.com/", "market_segment": "Upper-Midscale", "coordinates": {"lat": 52.9123, "lng": -118.0912}},
    {"name": "Tekarra Lodge", "rank": 4, "website": "https://www.tekarralodge.com/", "market_segment": "Upper-Midscale", "coordinates": {"lat": 52.8567, "lng": -118.0234}},
    {"name": "Pine Bungalows", "rank": 5, "website": "https://www.pinebungalows.com/", "market_segment": "Upper-Midscale", "coordinates": {"lat": 52.8612, "lng": -118.0312}},
    {"name": "Bear Hill Lodge", "rank": 6, "website": "https://www.bearhilllodge.com/", "market_segment": "Upper-Midscale", "coordinates": {"lat": 52.8789, "lng": -118.0756}},
    {"name": "Jasper Inn & Suites", "rank": 7, "website": "https://www.jasperinn.com/", "market_segment": "Midscale", "coordinates": {"lat": 52.8756, "lng": -118.0801}},
    {"name": "Chateau Jasper", "rank": 8, "website": "https://www.chateaujasper.com/", "market_segment": "Midscale", "coordinates": {"lat": 52.8767, "lng": -118.0812}},
    {"name": "Lobstick Lodge", "rank": 9, "website": "https://www.lobsticklodge.com/", "market_segment": "Midscale", "coordinates": {"lat": 52.8778, "lng": -118.0834}},
    {"name": "Marmot Lodge", "rank": 10, "website": "https://www.marmotlodge.com/", "market_segment": "Midscale", "coordinates": {"lat": 52.8789, "lng": -118.0845}},
    {"name": "Tonquin Inn", "rank": 11, "website": "https://www.tonquininn.com/", "market_segment": "Midscale", "coordinates": {"lat": 52.8745, "lng": -118.0789}},
    {"name": "Mount Robson Inn", "rank": 12, "website": "https://www.mountrobsoninn.com/", "market_segment": "Midscale", "coordinates": {"lat": 52.8723, "lng": -118.0767}},
    {"name": "Astoria Hotel", "rank": 13, "website": "https://www.astoriajasper.com/", "market_segment": "Midscale", "coordinates": {"lat": 52.8734, "lng": -118.0778}},
    {"name": "Patricia Lake Bungalows", "rank": 14, "website": "https://www.patricialakebungalows.com/", "market_segment": "Upper-Midscale", "coordinates": {"lat": 52.9012, "lng": -118.0934}},
    {"name": "Overlander Mountain Lodge", "rank": 15, "website": "https://www.overlandermountainlodge.com/", "market_segment": "Upper-Midscale", "coordinates": {"lat": 53.0123, "lng": -118.1234}},
    {"name": "Alpine Village", "rank": 16, "website": "https://www.alpinevillagejasper.com/", "market_segment": "Upper-Midscale", "coordinates": {"lat": 52.8534, "lng": -118.0189}},
    {"name": "Pocahontas Cabins", "rank": 17, "website": "https://www.pocahontascabins.com/", "market_segment": "Midscale", "coordinates": {"lat": 53.0867, "lng": -117.9012}},
    {"name": "Becker's Chalets", "rank": 18, "website": "https://www.beckerschalets.com/", "market_segment": "Upper-Midscale", "coordinates": {"lat": 52.8456, "lng": -118.0123}},
    {"name": "Maligne Lodge", "rank": 19, "website": "https://www.malignelodge.com/", "market_segment": "Midscale", "coordinates": {"lat": 52.8712, "lng": -118.0745}},
    {"name": "Athabasca Hotel", "rank": 20, "website": "https://www.athabascahotel.com/", "market_segment": "Economy", "coordinates": {"lat": 52.8723, "lng": -118.0789}},
    {"name": "Whistlers Inn", "rank": 21, "website": "https://www.whistlersinn.com/", "market_segment": "Midscale", "coordinates": {"lat": 52.8734, "lng": -118.0801}},
    {"name": "Best Western Jasper Inn & Suites", "rank": 22, "website": "https://www.bestwestern.com/en_US/book/hotels-in-jasper/best-western-jasper-inn-suites/propertyCode.61033.html", "market_segment": "Midscale", "coordinates": {"lat": 52.8745, "lng": -118.0812}},
    {"name": "HI Jasper", "rank": 23, "website": "https://hihostels.ca/en/destinations/alberta/hi-jasper", "market_segment": "Economy", "coordinates": {"lat": 52.8756, "lng": -118.0823}},
    {"name": "Jasper Downtown Hostel", "rank": 24, "website": "https://www.jasperdowntownhostel.ca/", "market_segment": "Economy", "coordinates": {"lat": 52.8767, "lng": -118.0834}},
    {"name": "Park Place Inn", "rank": 25, "website": "https://www.parkplaceinn.com/", "market_segment": "Midscale", "coordinates": {"lat": 52.8778, "lng": -118.0845}},
    {"name": "Crimson Jasper", "rank": 26, "website": "https://www.crimsonjasper.com/", "market_segment": "Upscale", "coordinates": {"lat": 52.8701, "lng": -118.0734}},
    {"name": "Forest Park Hotel", "rank": 27, "website": "https://www.forestparkhotel.ca/", "market_segment": "Midscale", "coordinates": {"lat": 52.8789, "lng": -118.0856}},
    {"name": "Miette Hot Springs Resort", "rank": 28, "website": "https://www.miettehotsprings.com/", "market_segment": "Upper-Midscale", "coordinates": {"lat": 53.1234, "lng": -117.7856}},
    {"name": "Sunwapta Falls Rocky Mountain Lodge", "rank": 29, "website": "https://www.sunwapta.com/", "market_segment": "Upper-Midscale", "coordinates": {"lat": 52.5345, "lng": -117.6234}},
    {"name": "Glacier View Lodge", "rank": 30, "website": "https://www.glacierviewlodge.com/", "market_segment": "Upper-Midscale", "coordinates": {"lat": 52.2189, "lng": -117.2267}}
  ]
}
