{
  "hotels": [
    {"name": "Sutton Place Hotel Revelstoke", "rank": 1, "website": "https://www.suttonplace.com/revelstoke", "market_segment": "Luxury", "coordinates": {"lat": 50.9612, "lng": -118.1923}},
    {"name": "Nelsen Lodge", "rank": 2, "website": "https://www.nelsenlodge.com/", "market_segment": "Upper-Midscale", "coordinates": {"lat": 50.9989, "lng": -118.1634}},
    {"name": "Hillcrest Hotel", "rank": 3, "website": "https://www.hillcresthotelrevelstoke.com/", "market_segment": "Upper-Midscale", "coordinates": {"lat": 50.9978, "lng": -118.1956}},
    {"name": "Best Western Plus Revelstoke", "rank": 4, "website": "https://www.bestwestern.com/en_US/book/hotels-in-revelstoke/best-western-plus-revelstoke/propertyCode.61086.html", "market_segment": "Midscale", "coordinates": {"lat": 51.0012, "lng": -118.1867}},
    {"name": "Regent Hotel", "rank": 5, "website": "https://www.regenthotelrevelstoke.com/", "market_segment": "Midscale", "coordinates": {"lat": 50.9989, "lng": -118.1978}},
    {"name": "Coast Hillcrest Hotel", "rank": 6, "website": "https://www.coasthotels.com/hotels/british-columbia/revelstoke/coast-hillcrest-hotel/", "market_segment": "Midscale", "coordinates": {"lat": 50.9967, "lng": -118.1945}},
    {"name": "Days Inn by Wyndham Revelstoke", "rank": 7, "website": "https://www.wyndhamhotels.com/days-inn/revelstoke-british-columbia/days-inn-revelstoke/overview", "market_segment": "Economy", "coordinates": {"lat": 51.0034, "lng": -118.1834}},
    {"name": "Sandman Hotel Revelstoke", "rank": 8, "website": "https://www.sandmanhotels.com/hotels/british-columbia/revelstoke", "market_segment": "Midscale", "coordinates": {"lat": 51.0045, "lng": -118.1812}},
    {"name": "Swiss Chalet Motel", "rank": 9, "website": "https://www.swisschaletmotel.com/", "market_segment": "Midscale", "coordinates": {"lat": 50.9956, "lng": -118.1923}},
    {"name": "Powder Springs Inn", "rank": 10, "website": "https://www.powderspringsinn.com/", "market_segment": "Upper-Midscale", "coordinates": {"lat": 50.9934, "lng": -118.1901}},
    {"name": "Monashee Lodge", "rank": 11, "website": "https://www.monasheelodge.com/", "market_segment": "Midscale", "coordinates": {"lat": 50.9912, "lng": -118.1889}},
    {"name": "Boulder Mountain Resort", "rank": 12, "website": "https://www.bouldermountainresort.com/", "market_segment": "Upper-Midscale", "coordinates": {"lat": 50.9645, "lng": -118.1567}},
    {"name": "Explorers Society Hotel", "rank": 13, "website": "https://www.explorerssocietyhotel.com/", "market_segment": "Upper-Midscale", "coordinates": {"lat": 50.9978, "lng": -118.1989}},
    {"name": "The Cube Hotel", "rank": 14, "website": "https://www.thecubehotel.ca/", "market_segment": "Midscale", "coordinates": {"lat": 50.9967, "lng": -118.1967}},
    {"name": "Basecamp Resorts Revelstoke", "rank": 15, "website": "https://basecampresorts.com/revelstoke/", "market_segment": "Upper-Midscale", "coordinates": {"lat": 50.9989, "lng": -118.1956}},
    {"name": "Stoke Hotel", "rank": 16, "website": "https://www.stokehotel.com/", "market_segment": "Upper-Midscale", "coordinates": {"lat": 50.9623, "lng": -118.1912}},
    {"name": "Glacier House Resort", "rank": 17, "website": "https://www.glacierhouse.com/", "market_segment": "Upper-Midscale", "coordinates": {"lat": 51.2623, "lng": -117.5189}},
    {"name": "Gateway Inn Revelstoke", "rank": 18, "website": "https://www.gatewayinnrevelstoke.com/", "market_segment": "Economy", "coordinates": {"lat": 51.0067, "lng": -118.1789}},
    {"name": "Samesun Revelstoke", "rank": 19, "website": "https://www.samesun.com/revelstoke/", "market_segment": "Economy", "coordinates": {"lat": 50.9978, "lng": -118.1978}},
    {"name": "Mulvehill Creek Wilderness Inn", "rank": 20, "website": "https://www.mulvehillcreek.com/", "market_segment": "Upper-Midscale", "coordinates": {"lat": 50.8912, "lng": -118.1234}},
    {"name": "Canyon Motor Inn", "rank": 21, "website": "https://www.canyonmotorinn.com/", "market_segment": "Economy", "coordinates": {"lat": 51.0078, "lng": -118.1767}},
    {"name": "Peaks Lodge", "rank": 22, "website": "https://www.peakslodge.com/", "market_segment": "Upper-Midscale", "coordinates": {"lat": 50.9612, "lng": -118.1912}},
    {"name": "Snowcat Lodge", "rank": 23, "website": "https://www.snowcatlodge.com/", "market_segment": "Upper-Midscale", "coordinates": {"lat": 50.9634, "lng": -118.1934}},
    {"name": "Rockford Hotel", "rank": 24, "website": "https://www.rockfordhotel.ca/", "market_segment": "Midscale", "coordinates": {"lat": 50.9956, "lng": -118.1945}},
    {"name": "Blanket Creek Cabins", "rank": 25, "website": "https://www.blanketcreekcabins.com/", "market_segment": "Upper-Midscale", "coordinates": {"lat": 50.8234, "lng": -118.0456}},
    {"name": "HI Revelstoke", "rank": 26, "website": "https://hihostels.ca/en/destinations/british-columbia/hi-revelstoke", "market_segment": "Economy", "coordinates": {"lat": 50.9989, "lng": -118.1989}},
    {"name": "Courthouse Inn", "rank": 27, "website": "https://www.courthouseinn.ca/", "market_segment": "Economy", "coordinates": {"lat": 50.9978, "lng": -118.1978}},
    {"name": "112 Guest House", "rank": 28, "website": "https://www.112guesthouse.com/", "market_segment": "Economy", "coordinates": {"lat": 50.9967, "lng": -118.1967}},
    {"name": "Columbia View Lodge", "rank": 29, "website": "https://www.columbiaviewlodge.com/", "market_segment": "Midscale", "coordinates": {"lat": 50.9945, "lng": -118.1923}},
    {"name": "Revelstoke Mountain Lodge", "rank": 30, "website": "https://www.revelstokemountainlodge.com/", "market_segment": "Midscale", "coordinates": {"lat": 50.9634, "lng": -118.1912}}
  ]
}
