{
  "hotels": [
    {"name": "QT Falls Creek", "rank": 1, "website": "https://www.qthotels.com/falls-creek/", "market_segment": "Upscale", "coordinates": {"lat": -36.8634, "lng": 147.2756}},
    {"name": "Huski Luxury Lodge", "rank": 2, "website": "https://www.huskilodge.com.au/", "market_segment": "Luxury", "coordinates": {"lat": -36.8645, "lng": 147.2767}},
    {"name": "Astra Falls Creek", "rank": 3, "website": "https://www.astrafallscreek.com.au/", "market_segment": "Upscale", "coordinates": {"lat": -36.8623, "lng": 147.2745}},
    {"name": "Alpha Lodge", "rank": 4, "website": "https://www.alphalodge.com.au/", "market_segment": "Upper-Midscale", "coordinates": {"lat": -36.8656, "lng": 147.2778}},
    {"name": "Diana Alpine Lodge", "rank": 5, "website": "https://www.dianalpine.com.au/", "market_segment": "Upper-Midscale", "coordinates": {"lat": -36.8612, "lng": 147.2734}},
    {"name": "Attunga Alpine Lodge", "rank": 6, "website": "https://www.attungalodge.com.au/", "market_segment": "Upper-Midscale", "coordinates": {"lat": -36.8667, "lng": 147.2789}},
    {"name": "Falls Creek Hotel", "rank": 7, "website": "https://www.fallscreekhotel.com.au/", "market_segment": "Midscale", "coordinates": {"lat": -36.8601, "lng": 147.2723}},
    {"name": "Summit Ridge Alpine Lodge", "rank": 8, "website": "https://www.summitridge.com.au/", "market_segment": "Upper-Midscale", "coordinates": {"lat": -36.8678, "lng": 147.2801}},
    {"name": "Cedarwood Apartments", "rank": 9, "website": "https://www.cedarwood.com.au/", "market_segment": "Upper-Midscale", "coordinates": {"lat": -36.8590, "lng": 147.2712}},
    {"name": "Winterhaven", "rank": 10, "website": "https://www.winterhaven.com.au/", "market_segment": "Upper-Midscale", "coordinates": {"lat": -36.8689, "lng": 147.2812}},
    {"name": "The Stables", "rank": 11, "website": "https://www.thestables.com.au/", "market_segment": "Upper-Midscale", "coordinates": {"lat": -36.8579, "lng": 147.2701}},
    {"name": "Frueauf Village", "rank": 12, "website": "https://www.frueauf.com.au/", "market_segment": "Upscale", "coordinates": {"lat": -36.8701, "lng": 147.2823}},
    {"name": "Snowhaven", "rank": 13, "website": "https://www.snowhaven.com.au/", "market_segment": "Midscale", "coordinates": {"lat": -36.8568, "lng": 147.2690}},
    {"name": "Silverski Boutique Hotel", "rank": 14, "website": "https://www.silverski.com.au/", "market_segment": "Upscale", "coordinates": {"lat": -36.8712, "lng": 147.2834}},
    {"name": "The Frying Pan Inn", "rank": 15, "website": "https://www.fryingpaninn.com.au/", "market_segment": "Midscale", "coordinates": {"lat": -36.8557, "lng": 147.2679}},
    {"name": "Viking Lodge", "rank": 16, "website": "https://www.vikinglodge.com.au/", "market_segment": "Upper-Midscale", "coordinates": {"lat": -36.8723, "lng": 147.2845}},
    {"name": "Man Hotel", "rank": 17, "website": "https://www.manhotel.com.au/", "market_segment": "Midscale", "coordinates": {"lat": -36.8546, "lng": 147.2668}},
    {"name": "Cloud Nine Apartments", "rank": 18, "website": "https://www.cloudninefallscreek.com.au/", "market_segment": "Upper-Midscale", "coordinates": {"lat": -36.8734, "lng": 147.2856}},
    {"name": "Falls Creek YHA", "rank": 19, "website": "https://www.yha.com.au/hostels/vic/high-country/falls-creek/", "market_segment": "Economy", "coordinates": {"lat": -36.8535, "lng": 147.2657}},
    {"name": "Snowland", "rank": 20, "website": "https://www.snowland.com.au/", "market_segment": "Midscale", "coordinates": {"lat": -36.8745, "lng": 147.2867}},
    {"name": "Tatra Inn", "rank": 21, "website": "https://www.tatrainn.com.au/", "market_segment": "Midscale", "coordinates": {"lat": -36.8524, "lng": 147.2646}},
    {"name": "Halley's Apartments", "rank": 22, "website": "https://www.halleysapartments.com.au/", "market_segment": "Upper-Midscale", "coordinates": {"lat": -36.8756, "lng": 147.2878}},
    {"name": "Elk at Falls Creek", "rank": 23, "website": "https://www.elkatfallscreek.com.au/", "market_segment": "Upper-Midscale", "coordinates": {"lat": -36.8513, "lng": 147.2635}},
    {"name": "Panorama", "rank": 24, "website": "https://www.panoramafallscreek.com.au/", "market_segment": "Upper-Midscale", "coordinates": {"lat": -36.8767, "lng": 147.2889}},
    {"name": "Sundance Apartments", "rank": 25, "website": "https://www.sundancefallscreek.com.au/", "market_segment": "Midscale", "coordinates": {"lat": -36.8502, "lng": 147.2624}},
    {"name": "Peppers Rundells Alpine Lodge", "rank": 26, "website": "https://www.peppers.com.au/rundells/", "market_segment": "Upscale", "coordinates": {"lat": -36.8778, "lng": 147.2901}},
    {"name": "The Alitji", "rank": 27, "website": "https://www.alitji.com.au/", "market_segment": "Midscale", "coordinates": {"lat": -36.8491, "lng": 147.2613}},
    {"name": "Falls Creek Country Club", "rank": 28, "website": "https://www.fallscreekcountryclub.com.au/", "market_segment": "Upper-Midscale", "coordinates": {"lat": -36.8789, "lng": 147.2912}},
    {"name": "Bogong Jack", "rank": 29, "website": "https://www.bogongjack.com.au/", "market_segment": "Midscale", "coordinates": {"lat": -36.8480, "lng": 147.2602}},
    {"name": "Nelse Lodge", "rank": 30, "website": "https://www.nelselodge.com.au/", "market_segment": "Midscale", "coordinates": {"lat": -36.8801, "lng": 147.2923}}
  ]
}
