{
  "hotels": [
    {"name": "Mt Buller Chalet", "rank": 1, "website": "https://www.mtbullerchalet.com.au/", "market_segment": "Upscale", "coordinates": {"lat": -37.1456, "lng": 146.4389}},
    {"name": "Breathtaker Hotel", "rank": 2, "website": "https://www.breathtaker.com.au/", "market_segment": "Upscale", "coordinates": {"lat": -37.1467, "lng": 146.4401}},
    {"name": "Arlberg Hotel Mt Buller", "rank": 3, "website": "https://www.arlberg.com.au/", "market_segment": "Upper-Midscale", "coordinates": {"lat": -37.1445, "lng": 146.4378}},
    {"name": "Mercure Kooroora Mt Buller", "rank": 4, "website": "https://www.accorhotels.com/kooroora/", "market_segment": "Upper-Midscale", "coordinates": {"lat": -37.1478, "lng": 146.4412}},
    {"name": "Grand Mercure Pinnacle Valley Resort", "rank": 5, "website": "https://www.pinnaclevalleyresort.com.au/", "market_segment": "Upscale", "coordinates": {"lat": -37.1234, "lng": 146.4567}},
    {"name": "Salzburg Alpine Resort", "rank": 6, "website": "https://www.salzburgalpineresort.com.au/", "market_segment": "Upper-Midscale", "coordinates": {"lat": -37.1434, "lng": 146.4367}},
    {"name": "Duck Inn", "rank": 7, "website": "https://www.duckinn.com.au/", "market_segment": "Upper-Midscale", "coordinates": {"lat": -37.1489, "lng": 146.4423}},
    {"name": "Abom Hotel", "rank": 8, "website": "https://www.abomhotel.com.au/", "market_segment": "Midscale", "coordinates": {"lat": -37.1423, "lng": 146.4356}},
    {"name": "Alzburg Resort", "rank": 9, "website": "https://www.alzburg.com.au/", "market_segment": "Upper-Midscale", "coordinates": {"lat": -37.1501, "lng": 146.4434}},
    {"name": "Mt Buller YHA", "rank": 10, "website": "https://www.yha.com.au/hostels/vic/high-country/mt-buller/", "market_segment": "Economy", "coordinates": {"lat": -37.1412, "lng": 146.4345}},
    {"name": "Hotel & Pension Grimus", "rank": 11, "website": "https://www.grimus.com.au/", "market_segment": "Upper-Midscale", "coordinates": {"lat": -37.1512, "lng": 146.4445}},
    {"name": "Cattleman's Motel", "rank": 12, "website": "https://www.cattlemansmotel.com.au/", "market_segment": "Midscale", "coordinates": {"lat": -37.1245, "lng": 146.4578}},
    {"name": "Alpine Central", "rank": 13, "website": "https://www.alpinecentral.com.au/", "market_segment": "Upper-Midscale", "coordinates": {"lat": -37.1401, "lng": 146.4334}},
    {"name": "Mirimbah Park", "rank": 14, "website": "https://www.mirimbahpark.com.au/", "market_segment": "Upper-Midscale", "coordinates": {"lat": -37.1256, "lng": 146.4589}},
    {"name": "Rundell's Alpine Lodge", "rank": 15, "website": "https://www.rundells.com.au/", "market_segment": "Upper-Midscale", "coordinates": {"lat": -37.1523, "lng": 146.4456}},
    {"name": "The Tracks Bar", "rank": 16, "website": "https://www.thetracks.com.au/", "market_segment": "Midscale", "coordinates": {"lat": -37.1390, "lng": 146.4323}},
    {"name": "Moontaker", "rank": 17, "website": "https://www.moontaker.com.au/", "market_segment": "Upper-Midscale", "coordinates": {"lat": -37.1534, "lng": 146.4467}},
    {"name": "Chamois Lodge", "rank": 18, "website": "https://www.chamoislodge.com.au/", "market_segment": "Midscale", "coordinates": {"lat": -37.1379, "lng": 146.4312}},
    {"name": "Freefall Lodge", "rank": 19, "website": "https://www.freefall.com.au/", "market_segment": "Midscale", "coordinates": {"lat": -37.1545, "lng": 146.4478}},
    {"name": "Mt Buller Resort Management", "rank": 20, "website": "https://www.mtbuller.com.au/", "market_segment": "Upper-Midscale", "coordinates": {"lat": -37.1368, "lng": 146.4301}},
    {"name": "Kandahar Lodge", "rank": 21, "website": "https://www.kandaharlodge.com.au/", "market_segment": "Upper-Midscale", "coordinates": {"lat": -37.1556, "lng": 146.4489}},
    {"name": "Mt Buller Apartments", "rank": 22, "website": "https://www.mtbullerapartments.com.au/", "market_segment": "Upper-Midscale", "coordinates": {"lat": -37.1357, "lng": 146.4290}},
    {"name": "The Schuss", "rank": 23, "website": "https://www.theschuss.com.au/", "market_segment": "Midscale", "coordinates": {"lat": -37.1567, "lng": 146.4501}},
    {"name": "Ski Club of Victoria", "rank": 24, "website": "https://www.scv.com.au/", "market_segment": "Midscale", "coordinates": {"lat": -37.1346, "lng": 146.4279}},
    {"name": "Buller Alpine Club", "rank": 25, "website": "https://www.bulleralpineclub.com.au/", "market_segment": "Midscale", "coordinates": {"lat": -37.1578, "lng": 146.4512}},
    {"name": "Mansfield Alpine Resort", "rank": 26, "website": "https://www.mansfieldalpineresort.com.au/", "market_segment": "Upper-Midscale", "coordinates": {"lat": -37.0567, "lng": 146.0912}},
    {"name": "Mansfield Ski Lodge", "rank": 27, "website": "https://www.mansfieldskilodge.com.au/", "market_segment": "Midscale", "coordinates": {"lat": -37.1335, "lng": 146.4268}},
    {"name": "Delatite Hotel", "rank": 28, "website": "https://www.delatitehotel.com.au/", "market_segment": "Midscale", "coordinates": {"lat": -37.0578, "lng": 146.0923}},
    {"name": "High Country Motor Inn", "rank": 29, "website": "https://www.highcountrymotorinn.com.au/", "market_segment": "Midscale", "coordinates": {"lat": -37.0589, "lng": 146.0934}},
    {"name": "Howqua Valley Views", "rank": 30, "website": "https://www.howquavalleyviews.com.au/", "market_segment": "Midscale", "coordinates": {"lat": -37.0601, "lng": 146.0945}}
  ]
}
