{
  "hotels": [
    {"name": "Stowe Mountain Lodge", "rank": 1, "website": "https://www.destinationhotels.com/stowe-mountain-lodge", "market_segment": "Luxury", "coordinates": {"lat": 44.5312, "lng": -72.7823}},
    {"name": "Topnotch Resort", "rank": 2, "website": "https://www.topnotchresort.com/", "market_segment": "Upscale", "coordinates": {"lat": 44.4934, "lng": -72.7412}},
    {"name": "Trapp Family Lodge", "rank": 3, "website": "https://www.trappfamily.com/", "market_segment": "Upscale", "coordinates": {"lat": 44.4623, "lng": -72.7567}},
    {"name": "The Lodge at Spruce Peak", "rank": 4, "website": "https://www.sprucepeak.com/", "market_segment": "Luxury", "coordinates": {"lat": 44.5301, "lng": -72.7812}},
    {"name": "Field Guide", "rank": 5, "website": "https://www.fieldguidestowe.com/", "market_segment": "Upscale", "coordinates": {"lat": 44.4656, "lng": -72.6878}},
    {"name": "Stoweflake Mountain Resort & Spa", "rank": 6, "website": "https://www.stoweflake.com/", "market_segment": "Upscale", "coordinates": {"lat": 44.4712, "lng": -72.6934}},
    {"name": "Green Mountain Inn", "rank": 7, "website": "https://www.greenmountaininn.com/", "market_segment": "Upper-Midscale", "coordinates": {"lat": 44.4634, "lng": -72.6856}},
    {"name": "Stowe Inn", "rank": 8, "website": "https://www.stoweinn.com/", "market_segment": "Upper-Midscale", "coordinates": {"lat": 44.4645, "lng": -72.6867}},
    {"name": "Sun & Ski Inn and Suites", "rank": 9, "website": "https://www.sunandskiinn.com/", "market_segment": "Midscale", "coordinates": {"lat": 44.4867, "lng": -72.7234}},
    {"name": "Stowehof Inn", "rank": 10, "website": "https://www.stowehof.com/", "market_segment": "Upper-Midscale", "coordinates": {"lat": 44.4756, "lng": -72.7123}},
    {"name": "The Stowe Inn", "rank": 11, "website": "https://www.thestoweinn.com/", "market_segment": "Upper-Midscale", "coordinates": {"lat": 44.4623, "lng": -72.6845}},
    {"name": "Commodores Inn", "rank": 12, "website": "https://www.commodoresinn.com/", "market_segment": "Midscale", "coordinates": {"lat": 44.4878, "lng": -72.7245}},
    {"name": "Golden Eagle Resort", "rank": 13, "website": "https://www.goldeneagleresort.com/", "market_segment": "Upper-Midscale", "coordinates": {"lat": 44.4789, "lng": -72.7134}},
    {"name": "Smugglers Notch Resort", "rank": 14, "website": "https://www.smuggs.com/", "market_segment": "Upper-Midscale", "coordinates": {"lat": 44.5867, "lng": -72.7856}},
    {"name": "Grey Fox Inn", "rank": 15, "website": "https://www.greyfoxinn.com/", "market_segment": "Upper-Midscale", "coordinates": {"lat": 44.4701, "lng": -72.6923}},
    {"name": "Riverside Inn", "rank": 16, "website": "https://www.riversideinnvt.com/", "market_segment": "Midscale", "coordinates": {"lat": 44.4589, "lng": -72.6789}},
    {"name": "Salzburg Inn", "rank": 17, "website": "https://www.salzburginn.com/", "market_segment": "Midscale", "coordinates": {"lat": 44.4678, "lng": -72.6912}},
    {"name": "Innsbruck Inn at Stowe", "rank": 18, "website": "https://www.innsbruckinn.com/", "market_segment": "Midscale", "coordinates": {"lat": 44.4834, "lng": -72.7178}},
    {"name": "Mountain Road Resort", "rank": 19, "website": "https://www.mountainroadresort.com/", "market_segment": "Upper-Midscale", "coordinates": {"lat": 44.4845, "lng": -72.7189}},
    {"name": "Stowe Motel & Snowdrift", "rank": 20, "website": "https://www.stowemotel.com/", "market_segment": "Midscale", "coordinates": {"lat": 44.4856, "lng": -72.7201}},
    {"name": "Town & Country Resort", "rank": 21, "website": "https://www.townandcountryresort.com/", "market_segment": "Upper-Midscale", "coordinates": {"lat": 44.4723, "lng": -72.6945}},
    {"name": "Northern Lights Lodge", "rank": 22, "website": "https://www.northernlightslodge.com/", "market_segment": "Midscale", "coordinates": {"lat": 44.4912, "lng": -72.7267}},
    {"name": "Sunset Motor Inn", "rank": 23, "website": "https://www.sunsetmotorinn.com/", "market_segment": "Economy", "coordinates": {"lat": 44.4923, "lng": -72.7278}},
    {"name": "Ye Olde England Inne", "rank": 24, "website": "https://www.yeoldeenglandinn.com/", "market_segment": "Upper-Midscale", "coordinates": {"lat": 44.4734, "lng": -72.6956}},
    {"name": "Hob Knob Inn & Restaurant", "rank": 25, "website": "https://www.hobknobinn.com/", "market_segment": "Midscale", "coordinates": {"lat": 44.4745, "lng": -72.6967}},
    {"name": "Timberholm Inn", "rank": 26, "website": "https://www.timberholm.com/", "market_segment": "Upper-Midscale", "coordinates": {"lat": 44.4756, "lng": -72.6978}},
    {"name": "Stowe Cabins in the Woods", "rank": 27, "website": "https://www.stowecabins.com/", "market_segment": "Upper-Midscale", "coordinates": {"lat": 44.4612, "lng": -72.6834}},
    {"name": "Brass Lantern Inn", "rank": 28, "website": "https://www.brasslanterninn.com/", "market_segment": "Upper-Midscale", "coordinates": {"lat": 44.4623, "lng": -72.6823}},
    {"name": "Stone Hill Inn", "rank": 29, "website": "https://www.stonehillinn.com/", "market_segment": "Upper-Midscale", "coordinates": {"lat": 44.4701, "lng": -72.6901}},
    {"name": "Stowe Village Inn", "rank": 30, "website": "https://www.stowevillageinn.com/", "market_segment": "Midscale", "coordinates": {"lat": 44.4634, "lng": -72.6845}}
  ]
}
