{
  "hotels": [
    {"name": "Sun Valley Lodge", "rank": 1, "website": "https://www.sunvalley.com/lodging/sun-valley-lodge", "market_segment": "Luxury", "coordinates": {"lat": 43.6823, "lng": -114.3523}},
    {"name": "Sun Valley Inn", "rank": 2, "website": "https://www.sunvalley.com/lodging/sun-valley-inn", "market_segment": "Upscale", "coordinates": {"lat": 43.6834, "lng": -114.3534}},
    {"name": "Limelight Hotel Ketchum", "rank": 3, "website": "https://www.limelighthotels.com/ketchum", "market_segment": "Upscale", "coordinates": {"lat": 43.6812, "lng": -114.3612}},
    {"name": "Knob Hill Inn", "rank": 4, "website": "https://www.knobhillinn.com/", "market_segment": "Upscale", "coordinates": {"lat": 43.6801, "lng": -114.3623}},
    {"name": "The Arling", "rank": 5, "website": "https://www.thearling.com/", "market_segment": "Upscale", "coordinates": {"lat": 43.6789, "lng": -114.3634}},
    {"name": "Hotel Ketchum", "rank": 6, "website": "https://www.hotelketchum.com/", "market_segment": "Upper-Midscale", "coordinates": {"lat": 43.6778, "lng": -114.3645}},
    {"name": "Best Western Tyrolean Lodge", "rank": 7, "website": "https://www.bestwestern.com/en_US/book/hotels-in-ketchum/best-western-tyrolean-lodge/propertyCode.13085.html", "market_segment": "Midscale", "coordinates": {"lat": 43.6767, "lng": -114.3656}},
    {"name": "Tamarack Lodge", "rank": 8, "website": "https://www.tamaracksunvalley.com/", "market_segment": "Upper-Midscale", "coordinates": {"lat": 43.6756, "lng": -114.3667}},
    {"name": "Lift Tower Lodge", "rank": 9, "website": "https://www.lifttowerlodge.com/", "market_segment": "Midscale", "coordinates": {"lat": 43.6745, "lng": -114.3678}},
    {"name": "Clarion Inn Sun Valley", "rank": 10, "website": "https://www.choicehotels.com/idaho/ketchum/clarion-hotels", "market_segment": "Midscale", "coordinates": {"lat": 43.6734, "lng": -114.3689}},
    {"name": "Sun Valley Cottages", "rank": 11, "website": "https://www.sunvalley.com/lodging/cottages", "market_segment": "Upper-Midscale", "coordinates": {"lat": 43.6845, "lng": -114.3512}},
    {"name": "Christiania Lodge", "rank": 12, "website": "https://www.christianialodge.com/", "market_segment": "Upper-Midscale", "coordinates": {"lat": 43.6723, "lng": -114.3701}},
    {"name": "The Valley Club", "rank": 13, "website": "https://www.thevalleyclub.com/", "market_segment": "Upscale", "coordinates": {"lat": 43.6956, "lng": -114.3234}},
    {"name": "Idaho Rocky Mountain Ranch", "rank": 14, "website": "https://www.idahorocky.com/", "market_segment": "Upper-Midscale", "coordinates": {"lat": 44.1234, "lng": -114.8567}},
    {"name": "Galena Lodge", "rank": 15, "website": "https://www.galenalodge.com/", "market_segment": "Upper-Midscale", "coordinates": {"lat": 43.8123, "lng": -114.4234}},
    {"name": "River Street Inn", "rank": 16, "website": "https://www.riverstreetinn.com/", "market_segment": "Midscale", "coordinates": {"lat": 43.6712, "lng": -114.3712}},
    {"name": "Kentwood Lodge", "rank": 17, "website": "https://www.kentwoodlodge.com/", "market_segment": "Upper-Midscale", "coordinates": {"lat": 43.6801, "lng": -114.3601}},
    {"name": "The Avery", "rank": 18, "website": "https://www.theaveryketchum.com/", "market_segment": "Upper-Midscale", "coordinates": {"lat": 43.6789, "lng": -114.3623}},
    {"name": "Bald Mountain Lodge", "rank": 19, "website": "https://www.baldmountainlodge.com/", "market_segment": "Midscale", "coordinates": {"lat": 43.6778, "lng": -114.3645}},
    {"name": "Heidelberg Inn", "rank": 20, "website": "https://www.heidelberginn.com/", "market_segment": "Midscale", "coordinates": {"lat": 43.6767, "lng": -114.3656}},
    {"name": "Limelight Condos", "rank": 21, "website": "https://www.limelightcondos.com/", "market_segment": "Upper-Midscale", "coordinates": {"lat": 43.6823, "lng": -114.3612}},
    {"name": "Wood River Inn", "rank": 22, "website": "https://www.woodriverinn.com/", "market_segment": "Economy", "coordinates": {"lat": 43.6489, "lng": -114.4123}},
    {"name": "AmericInn by Wyndham Hailey", "rank": 23, "website": "https://www.wyndhamhotels.com/americinn/hailey-idaho/americinn-lodge-suites-hailey-sun-valley/overview", "market_segment": "Midscale", "coordinates": {"lat": 43.5178, "lng": -114.3156}},
    {"name": "Sun Valley Condominiums", "rank": 24, "website": "https://www.sunvalley.com/lodging/condos", "market_segment": "Upper-Midscale", "coordinates": {"lat": 43.6856, "lng": -114.3501}},
    {"name": "Elkhorn Village", "rank": 25, "website": "https://www.elkhornvillage.com/", "market_segment": "Upper-Midscale", "coordinates": {"lat": 43.6901, "lng": -114.3312}},
    {"name": "Warm Springs Chalets", "rank": 26, "website": "https://www.warmspringschalets.com/", "market_segment": "Upper-Midscale", "coordinates": {"lat": 43.6623, "lng": -114.3823}},
    {"name": "Penny Lane Lodge", "rank": 27, "website": "https://www.pennylanelodge.com/", "market_segment": "Midscale", "coordinates": {"lat": 43.6712, "lng": -114.3723}},
    {"name": "Hyndman Condos", "rank": 28, "website": "https://www.hyndmancondos.com/", "market_segment": "Upper-Midscale", "coordinates": {"lat": 43.6778, "lng": -114.3667}},
    {"name": "Thunder Spring", "rank": 29, "website": "https://www.thunderspring.com/", "market_segment": "Upper-Midscale", "coordinates": {"lat": 43.6834, "lng": -114.3589}},
    {"name": "Dollar Mountain Lodge", "rank": 30, "website": "https://www.dollarmountainlodge.com/", "market_segment": "Midscale", "coordinates": {"lat": 43.6867, "lng": -114.3478}}
  ]
}
